Id,latitude,longitude,Street Address,Suburb,Post Code
570,-33.7446836,151.2878881,"7 TULICH AVENUE, DEE WHY NSW 2099",DEE WHY,2099
571,-33.79311716,151.2867946,"76-78 NORTH STEYNE, MANLY NSW 2095",MANLY,2095
572,-33.7180329,151.2989307,"55 OCEAN STREET, NARRABEEN NSW 2101",NARRABEEN,2101
573,-33.80258095,151.2876912,"7 OSBORNE ROAD, MANLY NSW 2095",MANLY,2095
574,-33.75713633,151.2913374,"32 THE CRESCENT, DEE WHY NSW 2099",DEE WHY,2099
575,-33.67011528,151.2978986,"11 KUNARI PLACE, MONA VALE NSW 2103",MONA VALE,2103
576,-33.80106683,151.2876625,"13A ASHBURNER STREET, MANLY NSW 2095",MANLY,2095
577,-33.79921039,151.2921638,"132-134 BOWER STREET, MANLY NSW 2095",MANLY,2095
578,-33.65095277,151.3118306,"29 RAYMOND ROAD, BILGOLA PLATEAU NSW 2107",BILGOLA PLATEAU,2107
579,-33.79689739,151.2747949,"74 FAIRLIGHT STREET, FAIRLIGHT NSW 2094",FAIRLIGHT,2094
580,-33.77306194,151.279717,"109 WYUNA AVENUE, FRESHWATER NSW 2096",FRESHWATER,2096
581,-33.8038222,151.2888583,"4 HIGH STREET, MANLY NSW 2095",MANLY,2095
582,-33.78012274,151.2778721,"10 WAINE STREET, FRESHWATER NSW 2096",FRESHWATER,2096
583,-33.78075369,151.2871975,"47 UNDERCLIFF ROAD, FRESHWATER NSW 2096",FRESHWATER,2096
584,-33.76131552,151.2842451,"35 JOCELYN STREET, NORTH CURL CURL NSW 2099",NORTH CURL CURL,2099
585,-33.79366194,151.2714687,"21 AUSTIN STREET, FAIRLIGHT NSW 2094",FAIRLIGHT,2094
586,-33.72307837,151.2933499,"54 CLARKE STREET, NARRABEEN NSW 2101",NARRABEEN,2101
587,-33.78751752,151.2836678,"225 PITTWATER ROAD, MANLY NSW 2095",MANLY,2095
588,-33.74748479,151.2380296,"4 GARIE PLACE, FRENCHS FOREST NSW 2086",FRENCHS FOREST,2086
589,-33.77204869,151.2674868,"556-562 PITTWATER ROAD, NORTH MANLY NSW 2100",NORTH MANLY,2100
590,-33.75459433,151.2876214,"38 PACIFIC PARADE, DEE WHY NSW 2099",DEE WHY,2099
591,-33.67549711,151.3133821,"32 HEATH STREET, MONA VALE NSW 2103",MONA VALE,2103
592,-33.78845074,151.2834396,"23 COLLINGWOOD STREET, MANLY NSW 2095",MANLY,2095
593,-33.76940742,151.2758599,"86 WILLIAM STREET, NORTH MANLY NSW 2100",NORTH MANLY,2100
594,-33.75737987,151.2399587,"22 MADISON WAY, ALLAMBIE HEIGHTS NSW 2100",ALLAMBIE HEIGHTS,2100
595,-33.79594505,151.2598303,"51 WEST STREET, BALGOWLAH NSW 2093",BALGOWLAH,2093
596,-33.79787103,151.2806019,"2 FAIRLIGHT STREET, MANLY NSW 2095",MANLY,2095
597,-33.7969973,151.2874654,"2 SYDNEY ROAD, MANLY NSW 2095",MANLY,2095
598,-33.78538915,151.2883157,"8A GREYCLIFFE STREET, QUEENSCLIFF NSW 2096",QUEENSCLIFF,2096
599,-33.59951391,151.3240091,"52 FLORIDA ROAD, PALM BEACH NSW 2108",PALM BEACH,2108
600,-33.75587185,151.2893215,"9 THE CRESCENT, DEE WHY NSW 2099",DEE WHY,2099
601,-33.7839928,151.2648248,"27 SUNSHINE STREET, MANLY VALE NSW 2093",MANLY VALE,2093
602,-33.62314401,151.3349498,"7 BURRAWONG ROAD, AVALON BEACH NSW 2107",AVALON BEACH,2107
603,-33.6373567,151.2781112,"8 STURDEE LANE, ELVINA BAY NSW 2105",ELVINA BAY,2105
604,-33.80087641,151.286235,"52 EAST ESPLANADE, MANLY NSW 2095",MANLY,2095
605,-33.7830489,151.2909164,"21-29 PAVILION STREET, QUEENSCLIFF NSW 2096",QUEENSCLIFF,2096
606,-33.76066133,151.2944328,"89 HEADLAND ROAD, NORTH CURL CURL NSW 2099",NORTH CURL CURL,2099
607,-33.66439408,151.3142567,"20 THE AVENUE, NEWPORT NSW 2106",NEWPORT,2106
608,-33.78987681,151.2782648,"21 BALGOWLAH ROAD, MANLY NSW 2095",MANLY,2095
609,-33.7464782,151.2847656,"1 EDNA PLACE, DEE WHY NSW 2099",DEE WHY,2099
610,-33.7911529,151.2850481,"115 PITTWATER ROAD, MANLY NSW 2095",MANLY,2095
611,-33.80585705,151.286456,"1 CRAIG AVENUE, MANLY NSW 2095",MANLY,2095
612,-33.62003257,151.3336802,"14 DOLPHIN CRESCENT, AVALON BEACH NSW 2107",AVALON BEACH,2107
613,-33.76845653,151.2935632,"51 ADAMS STREET, CURL CURL NSW 2096",CURL CURL,2096
614,-33.63130697,151.3256207,"18 SANCTUARY AVENUE, AVALON BEACH NSW 2107",AVALON BEACH,2107
615,-33.72476711,151.2218078,"10 LYNDHURST WAY, BELROSE NSW 2085",BELROSE,2085
616,-33.75604653,151.2989243,"190 PACIFIC PARADE, DEE WHY NSW 2099",DEE WHY,2099
617,-33.75918376,151.2986082,"47 MONASH PARADE, DEE WHY NSW 2099",DEE WHY,2099
618,-33.79829248,151.2533466,"19 ETHEL STREET, BALGOWLAH NSW 2093",BALGOWLAH,2093
619,-33.62860886,151.3212455,"21A CAPUA PLACE, AVALON BEACH NSW 2107",AVALON BEACH,2107
620,-33.66219113,151.2985069,"19-21 ALEXANDRA CRESCENT, BAYVIEW NSW 2104",BAYVIEW,2104
621,-33.71836669,151.2974513,"1 ROBERTSON STREET, NARRABEEN NSW 2101",NARRABEEN,2101
622,-33.78526798,151.2871388,"28-30 GREYCLIFFE STREET, QUEENSCLIFF NSW 2096",QUEENSCLIFF,2096
623,-33.78395363,151.2705986,"33A INNES ROAD, MANLY VALE NSW 2093",MANLY VALE,2093
624,-33.79030772,151.278775,"19 BALGOWLAH ROAD, MANLY NSW 2095",MANLY,2095
625,-33.7826005,151.286668,"36 CROWN ROAD, QUEENSCLIFF NSW 2096",QUEENSCLIFF,2096
626,-33.67814894,151.3088527,"20-22 GOLF AVENUE, MONA VALE NSW 2103",MONA VALE,2103
627,-33.65396722,151.3135545,"43 WALLUMATTA ROAD, NEWPORT NSW 2106",NEWPORT,2106
628,-33.74310989,151.2893454,"9 TURNER STREET, DEE WHY NSW 2099",DEE WHY,2099
629,-33.79913569,151.261643,"25 LOWER BEACH STREET, BALGOWLAH NSW 2093",BALGOWLAH,2093
630,-33.70438612,151.2935501,"36 NAREEN PARADE, NORTH NARRABEEN NSW 2101",NORTH NARRABEEN,2101
631,-33.70482252,151.3003826,"30 MALCOLM STREET, NARRABEEN NSW 2101",NARRABEEN,2101
632,-33.75458855,151.2936837,"88 OAKS AVENUE, DEE WHY NSW 2099",DEE WHY,2099
633,-33.74207814,151.2068276,"1 NIANBILLA PLACE, FRENCHS FOREST NSW 2086",FRENCHS FOREST,2086
634,-33.7760321,151.2716325,"490 PITTWATER ROAD, NORTH MANLY NSW 2100",NORTH MANLY,2100
635,-33.80200043,151.2930415,"93 BOWER STREET, MANLY NSW 2095",MANLY,2095
636,-33.80286854,151.2874672,"4 OSBORNE ROAD, MANLY NSW 2095",MANLY,2095
637,-33.7983279,151.274109,"32 LAUDERDALE AVENUE, FAIRLIGHT NSW 2094",FAIRLIGHT,2094
638,-33.79225656,151.2876892,"86 NORTH STEYNE, MANLY NSW 2095",MANLY,2095
639,-33.79566482,151.2771926,"1 THORNTON STREET, FAIRLIGHT NSW 2094",FAIRLIGHT,2094
640,-33.63696019,151.3293583,"70 OLD BARRENJOEY ROAD, AVALON BEACH NSW 2107",AVALON BEACH,2107
641,-33.75229876,151.2893867,"28 HOWARD AVENUE, DEE WHY NSW 2099",DEE WHY,2099
642,-33.8021608,151.2894292,"53 DARLEY ROAD, MANLY NSW 2095",MANLY,2095
643,-33.72788673,151.214215,"30 RALSTON AVENUE, BELROSE NSW 2085",BELROSE,2085
644,-33.64110232,151.3104779,"2 YARRABEE PLACE, BILGOLA PLATEAU NSW 2107",BILGOLA PLATEAU,2107
645,-33.78779647,151.2851645,"31 PACIFIC STREET, MANLY NSW 2095",MANLY,2095
646,-33.67518133,151.3156486,"37 SURFVIEW ROAD, MONA VALE NSW 2103",MONA VALE,2103
647,-33.7092027,151.3034406,"161 OCEAN STREET, NARRABEEN NSW 2101",NARRABEEN,2101
648,-33.60219752,151.3208559,"1026 BARRENJOEY ROAD, PALM BEACH NSW 2108",PALM BEACH,2108
649,-33.61714111,151.2072417,"4 NOTTING LANE, COTTAGE POINT NSW 2084",COTTAGE POINT,2084
650,-33.74584696,151.2902326,"15 GRAFTON CRESCENT, DEE WHY NSW 2099",DEE WHY,2099
651,-33.77544943,151.2762816,"131 SOLDIERS AVENUE, FRESHWATER NSW 2096",FRESHWATER,2096
652,-33.80358146,151.2846649,"6 COVE AVENUE, MANLY NSW 2095",MANLY,2095
653,-33.79999818,151.2849868,"47 EAST ESPLANADE, MANLY NSW 2095",MANLY,2095
654,-33.63778621,151.27977,"21 STURDEE LANE, ELVINA BAY NSW 2105",ELVINA BAY,2105
655,-33.75705406,151.293613,"15 WHEELER PARADE, DEE WHY NSW 2099",DEE WHY,2099
656,-33.79586851,151.2620476,"161A WOODLAND STREET, BALGOWLAH NSW 2093",BALGOWLAH,2093
657,-33.62120124,151.3206823,"25 CAREEL BAY CRESCENT, AVALON BEACH NSW 2107",AVALON BEACH,2107
658,-33.75572992,151.2846735,"7 DELMAR PARADE, DEE WHY NSW 2099",DEE WHY,2099
659,-33.75423743,151.2805542,"7 SELBY AVENUE, DEE WHY NSW 2099",DEE WHY,2099
660,-33.70550642,151.2879382,"128 RICKARD ROAD, NORTH NARRABEEN NSW 2101",NORTH NARRABEEN,2101
661,-33.79645229,151.2815579,"79 SYDNEY ROAD, MANLY NSW 2095",MANLY,2095
662,-33.75427971,151.2954463,"108 OAKS AVENUE, DEE WHY NSW 2099",DEE WHY,2099
663,-33.60374098,151.3205056,"1019 BARRENJOEY ROAD, PALM BEACH NSW 2108",PALM BEACH,2108
664,-33.75675216,151.2694789,"62 CONSUL ROAD, NARRAWEENA NSW 2099",NARRAWEENA,2099
665,-33.80286173,151.2895777,"84A DARLEY ROAD, MANLY NSW 2095",MANLY,2095
666,-33.75689919,151.2863275,"66 DELMAR PARADE, DEE WHY NSW 2099",DEE WHY,2099
667,-33.71399118,151.3002104,"4 WATERLOO STREET, NARRABEEN NSW 2101",NARRABEEN,2101
668,-33.78560289,151.2830545,"25 EUROBIN AVENUE, MANLY NSW 2095",MANLY,2095
669,-33.78767858,151.2852542,"31 PACIFIC STREET, MANLY NSW 2095",MANLY,2095
670,-33.78633324,151.2683802,"70 KENNETH ROAD, MANLY VALE NSW 2093",MANLY VALE,2093
671,-33.80210462,151.2885829,"72 DARLEY ROAD, MANLY NSW 2095",MANLY,2095
672,-33.80087266,151.2603953,"37 NEW STREET, BALGOWLAH HEIGHTS NSW 2093",BALGOWLAH HEIGHTS,2093
673,-33.75395668,151.2925528,"76 OAKS AVENUE, DEE WHY NSW 2099",DEE WHY,2099
674,-33.74989177,151.2711953,"75 EDWARD STREET, NARRAWEENA NSW 2099",NARRAWEENA,2099
675,-33.75318158,151.2875517,"896 PITTWATER ROAD, DEE WHY NSW 2099",DEE WHY,2099
676,-33.80582462,151.2889173,"53-55 WOOD STREET, MANLY NSW 2095",MANLY,2095
677,-33.74728262,151.2871675,"20 LISMORE AVENUE, DEE WHY NSW 2099",DEE WHY,2099
678,-33.65793806,151.3198189,"25 PALM ROAD, NEWPORT NSW 2106",NEWPORT,2106
679,-33.80499998,151.2848475,"15 COVE AVENUE, MANLY NSW 2095",MANLY,2095
680,-33.69770309,151.3072053,"18 SYDNEY ROAD, WARRIEWOOD NSW 2102",WARRIEWOOD,2102
681,-33.78546667,151.2753193,"28 ADDISCOMBE ROAD, MANLY VALE NSW 2093",MANLY VALE,2093
682,-33.7769666,151.2808179,"41 WILSON STREET, FRESHWATER NSW 2096",FRESHWATER,2096
683,-33.78155936,151.2847659,"74-78 CROWN ROAD, QUEENSCLIFF NSW 2096",QUEENSCLIFF,2096
684,-33.75047095,151.2880398,"9 KINGSWAY, DEE WHY NSW 2099",DEE WHY,2099
685,-33.79951817,151.2873236,"10 WENTWORTH STREET, MANLY NSW 2095",MANLY,2095
686,-33.75479022,151.2937011,"101 OAKS AVENUE, DEE WHY NSW 2099",DEE WHY,2099
687,-33.77418473,151.2694158,"528 PITTWATER ROAD, NORTH MANLY NSW 2100",NORTH MANLY,2100
688,-33.77114648,151.2921562,"3 FARNELL STREET, CURL CURL NSW 2096",CURL CURL,2096
689,-33.75408746,151.2935438,"86 OAKS AVENUE, DEE WHY NSW 2099",DEE WHY,2099
690,-33.60169446,151.3228845,"110 PACIFIC ROAD, PALM BEACH NSW 2108",PALM BEACH,2108
691,-33.80077271,151.2883605,"15 ASHBURNER STREET, MANLY NSW 2095",MANLY,2095
692,-33.79618902,151.2757047,"165 SYDNEY ROAD, FAIRLIGHT NSW 2094",FAIRLIGHT,2094
693,-33.75211576,151.2898417,"26 HOWARD AVENUE, DEE WHY NSW 2099",DEE WHY,2099
694,-33.78645777,151.2529718,"10 KALAUI STREET, NORTH BALGOWLAH NSW 2093",NORTH BALGOWLAH,2093
695,-33.80531652,151.2857209,"66 ADDISON ROAD, MANLY NSW 2095",MANLY,2095
696,-33.75834493,151.2757558,"29 PINE AVENUE, BROOKVALE NSW 2100",BROOKVALE,2100
697,-33.79564073,151.2706634,"56 HILLTOP CRESCENT, FAIRLIGHT NSW 2094",FAIRLIGHT,2094
698,-33.79815879,151.2812813,"93 WEST ESPLANADE, MANLY NSW 2095",MANLY,2095
699,-33.79425082,151.2815207,"7 QUINTON ROAD, MANLY NSW 2095",MANLY,2095
700,-33.77910498,151.2710105,"2A CAMPBELL PARADE, MANLY VALE NSW 2093",MANLY VALE,2093
701,-33.76542661,151.2493285,"132 ALLAMBIE ROAD, ALLAMBIE HEIGHTS NSW 2100",ALLAMBIE HEIGHTS,2100
702,-33.78425993,151.2871952,"29 GREYCLIFFE STREET, QUEENSCLIFF NSW 2096",QUEENSCLIFF,2096
703,-33.75392762,151.2957696,"105 HOWARD AVENUE, DEE WHY NSW 2099",DEE WHY,2099
704,-33.67157044,151.3103143,"5 KARIBOO CLOSE, MONA VALE NSW 2103",MONA VALE,2103
705,-33.78183851,151.2819372,"12 DALLEY STREET, QUEENSCLIFF NSW 2096",QUEENSCLIFF,2096
706,-33.79956425,151.2845828,"2 THE CORSO, MANLY NSW 2095",MANLY,2095
707,-33.79958179,151.2753505,"5 LAUDERDALE AVENUE, FAIRLIGHT NSW 2094",FAIRLIGHT,2094
708,-33.77790285,151.2787053,"15 MARTIN STREET, FRESHWATER NSW 2096",FRESHWATER,2096
709,-33.74046018,151.229852,"15 KURRAJONG ROAD, FRENCHS FOREST NSW 2086",FRENCHS FOREST,2086
710,-33.78488493,151.2847625,"45 EUROBIN AVENUE, MANLY NSW 2095",MANLY,2095
711,-33.77850495,151.2851547,"9 LAWRENCE STREET, FRESHWATER NSW 2096",FRESHWATER,2096
712,-33.70056163,151.3032967,"LAKESIDE HOLIDAY PARK, 3 NORFOLK PARADE, NORTH NARRABEEN NSW 2101",NORTH NARRABEEN,2101
713,-33.62664719,151.3354618,"7 BAREENA ROAD, AVALON BEACH NSW 2107",AVALON BEACH,2107
714,-33.7901419,151.2851054,"156 PITTWATER ROAD, MANLY NSW 2095",MANLY,2095
715,-33.59412469,151.3199627,"60 PALM BEACH ROAD, PALM BEACH NSW 2108",PALM BEACH,2108
716,-33.75868543,151.2765063,"20 FEDERAL PARADE, BROOKVALE NSW 2100",BROOKVALE,2100
717,-33.75592216,151.2825912,"625 PITTWATER ROAD, DEE WHY NSW 2099",DEE WHY,2099
718,-33.79508277,151.2806843,"20 BIRKLEY ROAD, MANLY NSW 2095",MANLY,2095
719,-33.78481407,151.2822236,"13 EUROBIN AVENUE, MANLY NSW 2095",MANLY,2095
720,-33.63490357,151.2916034,"1A-1B PITT VIEW STREET, SCOTLAND ISLAND NSW 2105",SCOTLAND ISLAND,2105
721,-33.78801212,151.2812183,"2 ROLFE STREET, MANLY NSW 2095",MANLY,2095
722,-33.77430148,151.2720604,"19 AUSTRAL AVENUE, NORTH MANLY NSW 2100",NORTH MANLY,2100
723,-33.60063531,151.3225218,"125 PACIFIC ROAD, PALM BEACH NSW 2108",PALM BEACH,2108
724,-33.80282605,151.2916439,"COLLEGE GREEN, 6 COLLEGE STREET, MANLY NSW 2095",MANLY,2095
725,-33.70856135,151.2939898,"25 RICKARD ROAD, NORTH NARRABEEN NSW 2101",NORTH NARRABEEN,2101
726,-33.75613673,151.2928204,"101 PACIFIC PARADE, DEE WHY NSW 2099",DEE WHY,2099
727,-33.6487175,151.3135391,"24 ARGYLE STREET, BILGOLA PLATEAU NSW 2107",BILGOLA PLATEAU,2107
728,-33.79614835,151.2864323,"5A RAGLAN STREET, MANLY NSW 2095",MANLY,2095
729,-33.78538074,151.2691037,"18 KOORALA STREET, MANLY VALE NSW 2093",MANLY VALE,2093
730,-33.72300946,151.2762524,"1 JAMES WHEELER PLACE, WHEELER HEIGHTS NSW 2097",WHEELER HEIGHTS,2097
731,-33.68783871,151.2952279,"THE CLUBHOUSE, 6-14 MACPHERSON STREET, WARRIEWOOD NSW 2102",WARRIEWOOD,2102
732,-33.78904739,151.2867118,"114-117 NORTH STEYNE, MANLY NSW 2095",MANLY,2095
733,-33.74730865,151.2868545,"24 LISMORE AVENUE, DEE WHY NSW 2099",DEE WHY,2099
734,-33.78711604,151.2567103,"42 ABINGDON STREET, NORTH BALGOWLAH NSW 2093",NORTH BALGOWLAH,2093
735,-33.79853227,151.287077,"11-15 WENTWORTH STREET, MANLY NSW 2095",MANLY,2095
736,-33.63128936,151.3258366,"18 SANCTUARY AVENUE, AVALON BEACH NSW 2107",AVALON BEACH,2107
737,-33.72983649,151.3010109,"1096 PITTWATER ROAD, COLLAROY NSW 2097",COLLAROY,2097
738,-33.664833,151.3160656,"3B THE AVENUE, NEWPORT NSW 2106",NEWPORT,2106
739,-33.65276065,151.3207885,"46 FOAMCREST AVENUE, NEWPORT NSW 2106",NEWPORT,2106
740,-33.63933921,151.3217014,"2 THE PINNACLE, BILGOLA PLATEAU NSW 2107",BILGOLA PLATEAU,2107
741,-33.79336075,151.2840834,"29 KANGAROO STREET, MANLY NSW 2095",MANLY,2095
742,-33.78744306,151.2696761,"2 PATON PLACE, BALGOWLAH NSW 2093",BALGOWLAH,2093
743,-33.7636485,151.2888752,"25 PLAYFAIR ROAD, NORTH CURL CURL NSW 2099",NORTH CURL CURL,2099
744,-33.78360464,151.2717438,"40 INNES ROAD, MANLY VALE NSW 2093",MANLY VALE,2093
745,-33.58935142,151.2985035,"104 DIGGERS CRESCENT, GREAT MACKEREL BEACH NSW 2108",GREAT MACKEREL BEACH,2108
746,-33.75399795,151.2578268,"54 EARL STREET, BEACON HILL NSW 2100",BEACON HILL,2100
747,-33.80503391,151.2899853,"49 OSBORNE ROAD, MANLY NSW 2095",MANLY,2095
748,-33.79558318,151.2870201,"56 NORTH STEYNE, MANLY NSW 2095",MANLY,2095
749,-33.79543244,151.2841882,"52 RAGLAN STREET, MANLY NSW 2095",MANLY,2095
750,-33.79625674,151.285807,"26 WHISTLER STREET, MANLY NSW 2095",MANLY,2095
751,-33.78679026,151.2865704,"40 COLLINGWOOD STREET, MANLY NSW 2095",MANLY,2095
752,-33.80073648,151.2899267,"21B CLIFF STREET, MANLY NSW 2095",MANLY,2095
753,-33.8069022,151.284832,"4 BRUCE AVENUE, MANLY NSW 2095",MANLY,2095
754,-33.67472258,151.3140199,"5 BASSETT STREET, MONA VALE NSW 2103",MONA VALE,2103
755,-33.77792083,151.2826372,"6 WILSON STREET, FRESHWATER NSW 2096",FRESHWATER,2096
756,-33.63720404,151.282553,"1 STURDEE LANE, ELVINA BAY NSW 2105",ELVINA BAY,2105
757,-33.80001395,151.2918542,"122-124 BOWER STREET, MANLY NSW 2095",MANLY,2095
758,-33.77468971,151.2847166,"95 WYNDORA AVENUE, FRESHWATER NSW 2096",FRESHWATER,2096
759,-33.73524738,151.2741734,"10A GROVER AVENUE, CROMER NSW 2099",CROMER,2099
760,-33.6169529,151.3275447,"4 CURRAWONG AVENUE, PALM BEACH NSW 2108",PALM BEACH,2108
761,-33.64912714,151.3143965,"20 YORK TERRACE, BILGOLA PLATEAU NSW 2107",BILGOLA PLATEAU,2107
762,-33.78973932,151.2854084,"11 MALVERN AVENUE, MANLY NSW 2095",MANLY,2095
763,-33.79399642,151.2850282,"51 PITTWATER ROAD, MANLY NSW 2095",MANLY,2095
764,-33.78464785,151.2884223,"13 GREYCLIFFE STREET, QUEENSCLIFF NSW 2096",QUEENSCLIFF,2096
765,-33.77597085,151.2563542,"7 BINALONG AVENUE, ALLAMBIE HEIGHTS NSW 2100",ALLAMBIE HEIGHTS,2100
766,-33.7991025,151.2916967,"132-134 BOWER STREET, MANLY NSW 2095",MANLY,2095
767,-33.6027592,151.3018512,"2 COASTERS RETREAT, COASTERS RETREAT NSW 2108",COASTERS RETREAT,2108
768,-33.80256321,151.2905909,"42 FAIRY BOWER ROAD, MANLY NSW 2095",MANLY,2095
769,-33.72861811,151.2871437,"46 FULLER STREET, COLLAROY PLATEAU NSW 2097",COLLAROY PLATEAU,2097
770,-33.79945292,151.2795666,"1-3 COMMONWEALTH PARADE, MANLY NSW 2095",MANLY,2095
771,-33.80105609,151.2632644,"109 CONDAMINE STREET, BALGOWLAH NSW 2093",BALGOWLAH,2093
772,-33.79425931,151.2843341,"38 DENISON STREET, MANLY NSW 2095",MANLY,2095
773,-33.68146712,151.3035157,"1594A PITTWATER ROAD, MONA VALE NSW 2103",MONA VALE,2103
774,-33.70411834,151.2922646,"52 NAREEN PARADE, NORTH NARRABEEN NSW 2101",NORTH NARRABEEN,2101
775,-33.7873441,151.2867012,"1 BONNER AVENUE, MANLY NSW 2095",MANLY,2095
776,-33.67726737,151.2953937,"5 BARBARA COURT, MONA VALE NSW 2103",MONA VALE,2103
777,-33.75568855,151.2839232,"1-3 DELMAR PARADE, DEE WHY NSW 2099",DEE WHY,2099
778,-33.72888196,151.2647898,"57 CROMER ROAD, CROMER NSW 2099",CROMER,2099
779,-33.78848484,151.2847393,"196 PITTWATER ROAD, MANLY NSW 2095",MANLY,2095
780,-33.78793185,151.2831004,"25 GOLF PARADE, MANLY NSW 2095",MANLY,2095
781,-33.67950221,151.2979088,"44 VINEYARD STREET, MONA VALE NSW 2103",MONA VALE,2103
782,-33.75886631,151.201923,"55 ARTHUR STREET, FORESTVILLE NSW 2087",FORESTVILLE,2087
783,-33.63089351,151.3369831,"7 HARLEY ROAD, AVALON BEACH NSW 2107",AVALON BEACH,2107
784,-33.79605909,151.2856582,"19A WHISTLER STREET, MANLY NSW 2095",MANLY,2095
785,-33.78744801,151.288668,"22 BONNER AVENUE, MANLY NSW 2095",MANLY,2095
786,-33.80001203,151.2604657,"12B WEST STREET, BALGOWLAH NSW 2093",BALGOWLAH,2093
787,-33.79336202,151.2608747,"72 WEST STREET, BALGOWLAH NSW 2093",BALGOWLAH,2093
788,-33.76779745,151.2894272,"12 STEWART AVENUE, CURL CURL NSW 2096",CURL CURL,2096
789,-33.7957768,151.2884602,"54 NORTH STEYNE, MANLY NSW 2095",MANLY,2095
790,-33.6277724,151.3203917,"16 CAPUA PLACE, AVALON BEACH NSW 2107",AVALON BEACH,2107
791,-33.78922251,151.2834593,"53 SMITH STREET, MANLY NSW 2095",MANLY,2095
792,-33.62923655,151.3261411,"58 PARK AVENUE, AVALON BEACH NSW 2107",AVALON BEACH,2107
793,-33.79625962,151.2882885,"46 NORTH STEYNE, MANLY NSW 2095",MANLY,2095
794,-33.70619982,151.2878422,"127 RICKARD ROAD, NORTH NARRABEEN NSW 2101",NORTH NARRABEEN,2101
795,-33.79871762,151.2826189,"WEST ESPLANADE, MANLY NSW 2095",MANLY,2095
796,-33.68033897,151.3109536,"56 GOLF AVENUE, MONA VALE NSW 2103",MONA VALE,2103
797,-33.7923382,151.2880373,"86 NORTH STEYNE, MANLY NSW 2095",MANLY,2095
798,-33.79994482,151.2735834,"13 FAIRLIGHT CRESCENT, FAIRLIGHT NSW 2094",FAIRLIGHT,2094
799,-33.75194768,151.28409,"13-15 FRANCIS STREET, DEE WHY NSW 2099",DEE WHY,2099
800,-33.80274857,151.2887002,"77 ADDISON ROAD, MANLY NSW 2095",MANLY,2095
801,-33.62729558,151.3279188,"23 QUEENS AVENUE, AVALON BEACH NSW 2107",AVALON BEACH,2107
802,-33.78722404,151.2924612,"4 QUEENSCLIFF ROAD, QUEENSCLIFF NSW 2096",QUEENSCLIFF,2096
803,-33.78457963,151.2708128,"22 QUIRK ROAD, MANLY VALE NSW 2093",MANLY VALE,2093
804,-33.69945403,151.2778522,"9 THE FAIRWAY, ELANORA HEIGHTS NSW 2101",ELANORA HEIGHTS,2101
805,-33.79737101,151.2762868,"25 FAIRLIGHT STREET, FAIRLIGHT NSW 2094",FAIRLIGHT,2094
806,-33.69040161,151.3036751,"22A LAKEVIEW PARADE, WARRIEWOOD NSW 2102",WARRIEWOOD,2102
807,-33.77418902,151.2807725,"141 WYNDORA AVENUE, FRESHWATER NSW 2096",FRESHWATER,2096
808,-33.75495804,151.2967639,"135 OAKS AVENUE, DEE WHY NSW 2099",DEE WHY,2099
809,-33.79118761,151.2846072,"38 SMITH STREET, MANLY NSW 2095",MANLY,2095
810,-33.62151758,151.338687,"77 WHALE BEACH ROAD, AVALON BEACH NSW 2107",AVALON BEACH,2107
811,-33.80276518,151.2902775,"44 FAIRY BOWER ROAD, MANLY NSW 2095",MANLY,2095
812,-33.77886087,151.292727,"76 EVANS STREET, FRESHWATER NSW 2096",FRESHWATER,2096
813,-33.58934331,151.2991962,"24 DIGGERS CRESCENT, GREAT MACKEREL BEACH NSW 2108",GREAT MACKEREL BEACH,2108
814,-33.79756483,151.2864128,"45 THE CORSO, MANLY NSW 2095",MANLY,2095
815,-33.67823355,151.295637,"66 MONA VALE ROAD, MONA VALE NSW 2103",MONA VALE,2103
816,-33.6282049,151.3264931,"80A KEVIN AVENUE, AVALON BEACH NSW 2107",AVALON BEACH,2107
817,-33.78541204,151.2661267,"11 HIGHVIEW AVENUE, MANLY VALE NSW 2093",MANLY VALE,2093
818,-33.80035342,151.2863344,"29 EAST ESPLANADE, MANLY NSW 2095",MANLY,2095
819,-33.79420968,151.284358,"38 DENISON STREET, MANLY NSW 2095",MANLY,2095
820,-33.79551831,151.2878633,"56 NORTH STEYNE, MANLY NSW 2095",MANLY,2095
821,-33.790628,151.2869389,"96-97 NORTH STEYNE, MANLY NSW 2095",MANLY,2095
822,-33.75832172,151.2944482,"52 CASSIA STREET, DEE WHY NSW 2099",DEE WHY,2099
823,-33.6600425,151.3150488,"53 QUEENS PARADE, NEWPORT NSW 2106",NEWPORT,2106
824,-33.80090477,151.2874,"13A ASHBURNER STREET, MANLY NSW 2095",MANLY,2095
825,-33.79522442,151.2708804,"245 SYDNEY ROAD, FAIRLIGHT NSW 2094",FAIRLIGHT,2094
826,-33.79695746,151.2797776,"13 GEORGE STREET, MANLY NSW 2095",MANLY,2095
827,-33.79019286,151.2773486,"35 BALGOWLAH ROAD, MANLY NSW 2095",MANLY,2095
828,-33.7942764,151.2829833,"12 OCEAN ROAD, MANLY NSW 2095",MANLY,2095
829,-33.79157603,151.260795,"109 WEST STREET, BALGOWLAH NSW 2093",BALGOWLAH,2093
830,-33.79794084,151.2755305,"7 WOODS PARADE, FAIRLIGHT NSW 2094",FAIRLIGHT,2094
831,-33.6952971,151.2885078,"50 BOLWARRA ROAD, NORTH NARRABEEN NSW 2101",NORTH NARRABEEN,2101
832,-33.74346619,151.210496,"19 KENS ROAD, FRENCHS FOREST NSW 2086",FRENCHS FOREST,2086
833,-33.80248789,151.2897785,"59 DARLEY ROAD, MANLY NSW 2095",MANLY,2095
834,-33.65523255,151.3182086,"2 FOAMCREST AVENUE, NEWPORT NSW 2106",NEWPORT,2106
835,-33.7338151,151.2244361,"19 EDGEWOOD PLACE, BELROSE NSW 2085",BELROSE,2085
836,-33.7940187,151.2417227,"86 PEACOCK STREET, SEAFORTH NSW 2092",SEAFORTH,2092
837,-33.79691576,151.2847654,"57 SYDNEY ROAD, MANLY NSW 2095",MANLY,2095
838,-33.79725858,151.275911,"19 WOODS PARADE, FAIRLIGHT NSW 2094",FAIRLIGHT,2094
839,-33.6734614,151.3013228,"50 PARK STREET, MONA VALE NSW 2103",MONA VALE,2103
840,-33.79254367,151.2781886,"25 FRANCIS STREET, FAIRLIGHT NSW 2094",FAIRLIGHT,2094
841,-33.72461762,151.2158765,"9 HARST PLACE, BELROSE NSW 2085",BELROSE,2085
842,-33.7862056,151.2836319,"16 ILUKA AVENUE, MANLY NSW 2095",MANLY,2095
843,-33.80134937,151.2880628,"56 DARLEY ROAD, MANLY NSW 2095",MANLY,2095
844,-33.60423321,151.2985499,"20 COASTERS RETREAT, COASTERS RETREAT NSW 2108",COASTERS RETREAT,2108
845,-33.78924239,151.2846805,"280 PITTWATER ROAD, MANLY NSW 2095",MANLY,2095
846,-33.77056334,151.2643086,"65 SMITH AVENUE, ALLAMBIE HEIGHTS NSW 2100",ALLAMBIE HEIGHTS,2100
847,-33.79864322,151.2825017,"WEST ESPLANADE, MANLY NSW 2095",MANLY,2095
848,-33.77391735,151.2906164,"2 WYADRA AVENUE, CURL CURL NSW 2096",CURL CURL,2096
849,-33.79644854,151.287127,"9-15 CENTRAL AVENUE, MANLY NSW 2095",MANLY,2095
850,-33.76857577,151.270184,"23 WILLIAM STREET, NORTH MANLY NSW 2100",NORTH MANLY,2100
851,-33.77983269,151.2861755,"36B UNDERCLIFF ROAD, FRESHWATER NSW 2096",FRESHWATER,2096
852,-33.63205024,151.3167945,"29 HILLTOP ROAD, AVALON BEACH NSW 2107",AVALON BEACH,2107
853,-33.73263766,151.2662022,"7 BADCOE ROAD, CROMER NSW 2099",CROMER,2099
854,-33.80096905,151.2918925,"111 BOWER STREET, MANLY NSW 2095",MANLY,2095
855,-33.7627277,151.2983279,"16 PITT ROAD, NORTH CURL CURL NSW 2099",NORTH CURL CURL,2099
856,-33.79755699,151.2669178,"13 KING AVENUE, BALGOWLAH NSW 2093",BALGOWLAH,2093
857,-33.65090766,151.3110184,"39 RAYMOND ROAD, BILGOLA PLATEAU NSW 2107",BILGOLA PLATEAU,2107
858,-33.80283995,151.288592,"71 ADDISON ROAD, MANLY NSW 2095",MANLY,2095
859,-33.75552795,151.2637085,"98 BEACON HILL ROAD, BEACON HILL NSW 2100",BEACON HILL,2100
860,-33.76192574,151.2672581,"10 BROOKVALE AVENUE, BROOKVALE NSW 2100",BROOKVALE,2100
861,-33.62218815,151.3366191,"4 ALEXANDER ROAD, AVALON BEACH NSW 2107",AVALON BEACH,2107
862,-33.79363857,151.2844818,"25 KANGAROO STREET, MANLY NSW 2095",MANLY,2095
863,-33.62323204,151.3170517,"107 PARADISE AVENUE, AVALON BEACH NSW 2107",AVALON BEACH,2107
864,-33.79579568,151.2816499,"81 SYDNEY ROAD, MANLY NSW 2095",MANLY,2095
865,-33.6527877,151.3198702,"27 OCEAN AVENUE, NEWPORT NSW 2106",NEWPORT,2106
866,-33.71750241,151.298455,"42 OCEAN STREET, NARRABEEN NSW 2101",NARRABEEN,2101
867,-33.77095555,151.2735067,"109 WYADRA AVENUE, NORTH MANLY NSW 2100",NORTH MANLY,2100
868,-33.79571343,151.2858498,"7 RAGLAN STREET, MANLY NSW 2095",MANLY,2095
869,-33.79187394,151.2846301,"16 SMITH STREET, MANLY NSW 2095",MANLY,2095
870,-33.77895948,151.2822307,"74-76 LAWRENCE STREET, FRESHWATER NSW 2096",FRESHWATER,2096
871,-33.74574357,151.2884819,"6 GRAFTON CRESCENT, DEE WHY NSW 2099",DEE WHY,2099
872,-33.79317668,151.2824909,"3 AUGUSTA ROAD, MANLY NSW 2095",MANLY,2095
873,-33.79848422,151.2499816,"22 MAGARRA PLACE, SEAFORTH NSW 2092",SEAFORTH,2092
874,-33.78408237,151.2881105,"20 BRIDGE ROAD, QUEENSCLIFF NSW 2096",QUEENSCLIFF,2096
875,-33.76970332,151.280125,"84 BRIGHTON STREET, FRESHWATER NSW 2096",FRESHWATER,2096
876,-33.74921877,151.2918683,"15 CLARENCE AVENUE, DEE WHY NSW 2099",DEE WHY,2099
877,-33.77671505,151.2838398,"36 OLIVER STREET, FRESHWATER NSW 2096",FRESHWATER,2096
878,-33.64745766,151.3215065,"60 HILLSIDE ROAD, NEWPORT NSW 2106",NEWPORT,2106
879,-33.79548756,151.2809787,"14 BIRKLEY ROAD, MANLY NSW 2095",MANLY,2095
880,-33.79508739,151.2845244,"50 RAGLAN STREET, MANLY NSW 2095",MANLY,2095
881,-33.73596215,151.2123481,"7 CASTLE CRESCENT, BELROSE NSW 2085",BELROSE,2085
882,-33.79602864,151.2705033,"1 KRUI STREET, FAIRLIGHT NSW 2094",FAIRLIGHT,2094
883,-33.62294777,151.3368015,"28 WHALE BEACH ROAD, AVALON BEACH NSW 2107",AVALON BEACH,2107
884,-33.79707631,151.2647388,"17 WHITE STREET, BALGOWLAH NSW 2093",BALGOWLAH,2093
885,-33.79758101,151.2848785,"3 BELGRAVE STREET, MANLY NSW 2095",MANLY,2095
886,-33.67214322,151.3118332,"5 BELLEVARDE PARADE, MONA VALE NSW 2103",MONA VALE,2103
887,-33.69573799,151.2904135,"121 GARDEN STREET, NORTH NARRABEEN NSW 2101",NORTH NARRABEEN,2101
888,-33.79770588,151.276667,"25 MARGARET STREET, FAIRLIGHT NSW 2094",FAIRLIGHT,2094
889,-33.78767909,151.2734875,"18 KENNETH ROAD, MANLY VALE NSW 2093",MANLY VALE,2093
890,-33.79742474,151.2653839,"3A WHITE STREET, BALGOWLAH NSW 2093",BALGOWLAH,2093
891,-33.7976448,151.2841711,"1 WEST PROMENADE, MANLY NSW 2095",MANLY,2095
892,-33.6295007,151.3235097,"11A RIVIERA AVENUE, AVALON BEACH NSW 2107",AVALON BEACH,2107
893,-33.75591613,151.2919972,"91 PACIFIC PARADE, DEE WHY NSW 2099",DEE WHY,2099
894,-33.79927713,151.2860182,"5 WENTWORTH STREET, MANLY NSW 2095",MANLY,2095
895,-33.75096559,151.2932916,"19-23 RICHMOND AVENUE, DEE WHY NSW 2099",DEE WHY,2099
896,-33.79471388,151.258351,"447-449 SYDNEY ROAD, BALGOWLAH NSW 2093",BALGOWLAH,2093
897,-33.66234786,151.3070012,"2 REDNAL STREET, MONA VALE NSW 2103",MONA VALE,2103
898,-33.7866399,151.281764,"268 PITTWATER ROAD, MANLY NSW 2095",MANLY,2095
899,-33.79519657,151.2855805,"10 PITTWATER ROAD, MANLY NSW 2095",MANLY,2095
900,-33.73984719,151.2732027,"97 CARAWA ROAD, CROMER NSW 2099",CROMER,2099
901,-33.75257138,151.2788003,"65 REDMAN ROAD, DEE WHY NSW 2099",DEE WHY,2099
902,-33.68003726,151.2217807,"1 ANGORRA ROAD, TERREY HILLS NSW 2084",TERREY HILLS,2084
903,-33.77834553,151.2833326,"6 OLIVER STREET, FRESHWATER NSW 2096",FRESHWATER,2096
904,-33.76809753,151.2944248,"67 ADAMS STREET, CURL CURL NSW 2096",CURL CURL,2096
905,-33.7482453,151.2180515,"6 JONATHON PLACE, FRENCHS FOREST NSW 2086",FRENCHS FOREST,2086
906,-33.75401872,151.2949575,"93-95 HOWARD AVENUE, DEE WHY NSW 2099",DEE WHY,2099
907,-33.77430887,151.2867003,"8 WYUNA AVENUE, FRESHWATER NSW 2096",FRESHWATER,2096
908,-33.70550443,151.2873856,"134 RICKARD ROAD, NORTH NARRABEEN NSW 2101",NORTH NARRABEEN,2101
909,-33.60661729,151.2980208,"38 COASTERS RETREAT, COASTERS RETREAT NSW 2108",COASTERS RETREAT,2108
910,-33.8002676,151.2760182,"1 LAUDERDALE AVENUE, FAIRLIGHT NSW 2094",FAIRLIGHT,2094
911,-33.78562688,151.2672442,"234 CONDAMINE STREET, MANLY VALE NSW 2093",MANLY VALE,2093
912,-33.77997111,151.2935717,"145 EVANS STREET, FRESHWATER NSW 2096",FRESHWATER,2096
913,-33.74245615,151.3002723,"30 LANCASTER CRESCENT, COLLAROY NSW 2097",COLLAROY,2097
914,-33.79729476,151.2739987,"47-49 FAIRLIGHT STREET, FAIRLIGHT NSW 2094",FAIRLIGHT,2094
915,-33.80173361,151.2938704,"83-85 BOWER STREET, MANLY NSW 2095",MANLY,2095
916,-33.78654843,151.2874728,"140-142 NORTH STEYNE, MANLY NSW 2095",MANLY,2095
917,-33.79056285,151.2493317,"15 WORROBIL STREET, NORTH BALGOWLAH NSW 2093",NORTH BALGOWLAH,2093
918,-33.74680368,151.2256755,"6 WAREHAM CRESCENT, FRENCHS FOREST NSW 2086",FRENCHS FOREST,2086
919,-33.63108316,151.3263184,"55 PARK AVENUE, AVALON BEACH NSW 2107",AVALON BEACH,2107
920,-33.75457702,151.2522319,"26 GOVERNMENT ROAD, BEACON HILL NSW 2100",BEACON HILL,2100
921,-33.70328238,151.2722873,"56 KOORANGI AVENUE, ELANORA HEIGHTS NSW 2101",ELANORA HEIGHTS,2101
922,-33.6385696,151.3237506,"36 PALMGROVE ROAD, AVALON BEACH NSW 2107",AVALON BEACH,2107
923,-33.79596342,151.2786159,"125 SYDNEY ROAD, FAIRLIGHT NSW 2094",FAIRLIGHT,2094
924,-33.78010269,151.280451,"31 PALOMAR PARADE, FRESHWATER NSW 2096",FRESHWATER,2096
925,-33.79350762,151.2860435,"9 STEINTON STREET, MANLY NSW 2095",MANLY,2095
926,-33.80015113,151.2867546,"5-7 VICTORIA PARADE, MANLY NSW 2095",MANLY,2095
927,-33.65106786,151.3163836,"62 GRANDVIEW DRIVE, NEWPORT NSW 2106",NEWPORT,2106
928,-33.79734519,151.2868546,"5 SYDNEY ROAD, MANLY NSW 2095",MANLY,2095
929,-33.79625049,151.284556,"54 SYDNEY ROAD, MANLY NSW 2095",MANLY,2095
930,-33.7999458,151.2869696,"22A DARLEY ROAD, MANLY NSW 2095",MANLY,2095
931,-33.70838682,151.3022851,"172-174 OCEAN STREET, NARRABEEN NSW 2101",NARRABEEN,2101
932,-33.76745034,151.2771011,"10 ETHEL AVENUE, BROOKVALE NSW 2100",BROOKVALE,2100
933,-33.80245914,151.2907302,"40 FAIRY BOWER ROAD, MANLY NSW 2095",MANLY,2095
934,-33.7459389,151.287007,"FISHER ROAD SCHOOL, 115 FISHER ROAD, DEE WHY NSW 2099",DEE WHY,2099
935,-33.67438247,151.3015371,"37 PARK STREET, MONA VALE NSW 2103",MONA VALE,2103
936,-33.78017,151.2933598,"145 EVANS STREET, FRESHWATER NSW 2096",FRESHWATER,2096
937,-33.79686533,151.2770792,"32 FAIRLIGHT STREET, FAIRLIGHT NSW 2094",FAIRLIGHT,2094
938,-33.75590259,151.2933973,"109 PACIFIC PARADE, DEE WHY NSW 2099",DEE WHY,2099
939,-33.62488248,151.329572,"46 GEORGE STREET, AVALON BEACH NSW 2107",AVALON BEACH,2107
940,-33.78439608,151.2692116,"31 QUIRK ROAD, MANLY VALE NSW 2093",MANLY VALE,2093
941,-33.7864055,151.2565332,"11 KIMO STREET, NORTH BALGOWLAH NSW 2093",NORTH BALGOWLAH,2093
942,-33.80243259,151.2929815,"7 COLLEGE STREET, MANLY NSW 2095",MANLY,2095
943,-33.79558674,151.2845545,"1 PITTWATER ROAD, MANLY NSW 2095",MANLY,2095
944,-33.75838141,151.2932418,"31 WHEELER PARADE, DEE WHY NSW 2099",DEE WHY,2099
945,-33.79748651,151.2850168,"9 BELGRAVE STREET, MANLY NSW 2095",MANLY,2095
946,-33.76824419,151.2924981,"9 LALCHERE STREET, CURL CURL NSW 2096",CURL CURL,2096
947,-33.79627748,151.2827924,"7 TOWER STREET, MANLY NSW 2095",MANLY,2095
948,-33.79860686,151.278883,"24 THE CRESCENT, MANLY NSW 2095",MANLY,2095
949,-33.77286916,151.2809108,"95 WYUNA AVENUE, FRESHWATER NSW 2096",FRESHWATER,2096
950,-33.79855427,151.2843429,"54A WEST ESPLANADE, MANLY NSW 2095",MANLY,2095
951,-33.76159272,151.2656052,"28-32 BROOKVALE AVENUE, BROOKVALE NSW 2100",BROOKVALE,2100
952,-33.79608925,151.2781416,"131 SYDNEY ROAD, FAIRLIGHT NSW 2094",FAIRLIGHT,2094
